#version,serial,flight,call,time,state,state_name,acceleration,pressure,altitude,height,speed,temperature,drogue_voltage,main_voltage,battery_voltage,accel_x,accel_y,accel_z,gyro_roll,gyro_pitch,gyro_yaw,mag_x,mag_y,mag_z,tilt,pyro,igniter_a,igniter_b,igniter_c,igniter_d,connected,locked,nsat,latitude,longitude,altitude,year,month,day,hour,minute,second,pad_dist,pad_range,pad_az,pad_el,pdop,hdop,vdop,sat01,sat02,sat03,sat04,sat05,sat06,sat07,sat08,sat09,sat10,sat11,sat12,sat13,sat14,sat15,sat16,sat17,sat18,sat19,sat20,sat21,sat22,sat23,sat24,sat25,sat26,sat27,sat28,sat29,sat30,sat31,sat32
6, 11202, 1,KF0LSY,    -0.30, 3,   boost,   -1.01,  86707.00, 1294.80,   -0.19,   29.86, 37.6, 7.46, 7.47, 3.57,   9.80,   0.89,  -0.69,  -0.08,   0.14,  -0.17,   0.23,   0.25,   0.13,   6.25, 7.51, 0.00, 0.00, 0.00, 0.00, 1, 1, 11,  32.9394083,-106.9114995,  1397.0, 2024,  6, 20, 15, 33, 40,        0,        0,   0,   0,   1.3,   0.7,   1.1,  0,  0,  0,  0, 28, 20,  0,  0,  0,  0, 38, 39,  0,  0,  0,  0, 33,  0, 19, 23,  0, 26,  0, 24, 30,  0,  0,  0, 31,  0,  0,  0
6, 11202, 1,KF0LSY,    -0.29, 3,   boost,   -0.00,  86705.00, 1294.99,    0.00,   30.95, 37.6, 7.46, 7.47, 3.57,   9.80,   0.89,  -0.68,   0.34,   0.14,  -0.11,   0.23,   0.24,   0.13,   6.25, 7.51, 0.00, 0.00, 0.00, 0.00, 1, 1, 11,  32.9394083,-106.9114995,  1397.0, 2024,  6, 20, 15, 33, 40,        0,        0,   0,   0,   1.3,   0.7,   1.1,  0,  0,  0,  0, 28, 20,  0,  0,  0,  0, 38, 39,  0,  0,  0,  0, 33,  0, 19, 23,  0, 26,  0, 24, 30,  0,  0,  0, 31,  0,  0,  0
6, 11202, 1,KF0LSY,    -0.28, 3,   boost,    0.50,  86705.00, 1294.99,    0.00,   32.07, 37.6, 7.46, 7.47, 3.57,   9.82,   0.80,  -0.72,   0.47,   0.20,   0.13,   0.24,   0.25,   0.13,   6.25, 7.51, 0.00, 0.00, 0.00, 0.00, 1, 1, 11,  32.9394083,-106.9114995,  1397.0, 2024,  6, 20, 15, 33, 40,        0,        0,   0,   0,   1.3,   0.7,   1.1,  0,  0,  0,  0, 28, 20,  0,  0,  0,  0, 38, 39,  0,  0,  0,  0, 33,  0, 19, 23,  0, 26,  0, 24, 30,  0,  0,  0, 31,  0,  0,  0
6, 11202, 1,KF0LSY,    -0.27, 3,   boost,   -0.50,  86701.00, 1295.37,    0.38,   33.28, 37.6, 7.46, 7.47, 3.57,   9.81,   0.83,  -0.64,   0.28,  -0.23,  -0.11,   0.24,   0.25,   0.13,   6.25, 7.51, 0.00, 0.00, 0.00, 0.00, 1, 1, 11,  32.9394083,-106.9114995,  1397.0, 2024,  6, 20, 15, 33, 40,        0,        0,   0,   0,   1.3,   0.7,   1.1,  0,  0,  0,  0, 28, 20,  0,  0,  0,  0, 38, 39,  0,  0,  0,  0, 33,  0, 19, 23,  0, 26,  0, 24, 30,  0,  0,  0, 31,  0,  0,  0
6, 11202, 1,KF0LSY,    -0.26, 3,   boost,   -0.50,  86701.00, 1295.37,    0.38,   34.51, 37.6, 7.46, 7.47, 3.57,   9.77,   0.80,  -0.70,  -0.33,  -0.05,  -0.05,   0.24,   0.25,   0.13,   6.25, 7.51, 0.00, 0.00, 0.00, 0.00, 1, 1, 11,  32.9394083,-106.9114995,  1397.0, 2024,  6, 20, 15, 33, 40,        0,        0,   0,   0,   1.3,   0.7,   1.1,  0,  0,  0,  0, 28, 20,  0,  0,  0,  0, 38, 39,  0,  0,  0,  0, 33,  0, 19, 23,  0, 26,  0, 24, 30,  0,  0,  0, 31,  0,  0,  0
6, 11202, 1,KF0LSY,    -0.25, 3,   boost,   -1.51,  86716.00, 1293.95,   -1.04,   35.80, 37.6, 7.46, 7.47, 3.57,   9.80,   0.80,  -0.69,  -1.00,  -0.05,  -0.60,   0.24,   0.24,   0.13,   6.25, 7.51, 0.00, 0.00, 0.00, 0.00, 1, 1, 11,  32.9394083,-106.9114995,  1397.0, 2024,  6, 20, 15, 33, 40,        0,        0,   0,   0,   1.3,   0.7,   1.1,  0,  0,  0,  0, 28, 20,  0,  0,  0,  0, 38, 39,  0,  0,  0,  0, 33,  0, 19, 23,  0, 26,  0, 24, 30,  0,  0,  0, 31,  0,  0,  0
6, 11202, 1,KF0LSY,    -0.24, 3,   boost,   -1.01,  86716.00, 1293.95,   -1.04,   37.13, 37.6, 7.46, 7.47, 3.57,   9.81,   0.89,  -0.64,  -1.79,   0.32,  -0.29,   0.24,   0.24,   0.13,   6.25, 7.51, 0.00, 0.00, 0.00, 0.00, 1, 1, 11,  32.9394083,-106.9114995,  1397.0, 2024,  6, 20, 15, 33, 40,        0,        0,   0,   0,   1.3,   0.7,   1.1,  0,  0,  0,  0, 28, 20,  0,  0,  0,  0, 38, 39,  0,  0,  0,  0, 33,  0, 19, 23,  0, 26,  0, 24, 30,  0,  0,  0, 31,  0,  0,  0
6, 11202, 1,KF0LSY,    -0.23, 3,   boost,   -0.50,  86701.00, 1295.37,    0.38,   38.52, 37.6, 7.46, 7.47, 3.57,   9.80,   0.85,  -0.68,  -1.61,   0.26,  -0.48,   0.24,   0.25,   0.13,   6.25, 7.51, 0.00, 0.00, 0.00, 0.00, 1, 1, 11,  32.9394083,-106.9114995,  1397.0, 2024,  6, 20, 15, 33, 40,        0,        0,   0,   0,   1.3,   0.7,   1.1,  0,  0,  0,  0, 28, 20,  0,  0,  0,  0, 38, 39,  0,  0,  0,  0, 33,  0, 19, 23,  0, 26,  0, 24, 30,  0,  0,  0, 31,  0,  0,  0
6, 11202, 1,KF0LSY,    -0.22, 3,   boost,   -1.01,  86701.00, 1295.37,    0.38,   39.95, 37.6, 7.46, 7.47, 3.57,   9.79,   0.85,  -0.70,  -1.79,   0.32,  -0.17,   0.23,   0.25,   0.13,   6.25, 7.51, 0.00, 0.00, 0.00, 0.00, 1, 1, 11,  32.9394083,-106.9114995,  1397.0, 2024,  6, 20, 15, 33, 40,        0,        0,   0,   0,   1.3,   0.7,   1.1,  0,  0,  0,  0, 28, 20,  0,  0,  0,  0, 38, 39,  0,  0,  0,  0, 33,  0, 19, 23,  0, 26,  0, 24, 30,  0,  0,  0, 31,  0,  0,  0
6, 11202, 1,KF0LSY,    -0.21, 3,   boost,   -0.00,  86700.00, 1295.46,    0.47,   41.45, 37.6, 7.46, 7.47, 3.57,   9.79,   0.85,  -0.72,  -1.61,   0.08,  -0.29,   0.24,   0.25,   0.13,   6.25, 7.51, 0.00, 0.00, 0.00, 0.00, 1, 1, 11,  32.9394083,-106.9114995,  1397.0, 2024,  6, 20, 15, 33, 40,        0,        0,   0,   0,   1.3,   0.7,   1.1,  0,  0,  0,  0, 28, 20,  0,  0,  0,  0, 38, 39,  0,  0,  0,  0, 33,  0, 19, 23,  0, 26,  0, 24, 30,  0,  0,  0, 31,  0,  0,  0
6, 11202, 1,KF0LSY,    -0.20, 3,   boost,   -0.50,  86700.00, 1295.46,    0.47,   42.99, 37.6, 7.46, 7.47, 3.57,   9.79,   0.80,  -0.78,  -1.92,   0.14,  -0.23,   0.24,   0.25,   0.13,   6.25, 7.51, 0.00, 0.00, 0.00, 0.00, 1, 1, 11,  32.9394083,-106.9114995,  1397.0, 2024,  6, 20, 15, 33, 40,        0,        0,   0,   0,   1.3,   0.7,   1.1,  0,  0,  0,  0, 28, 20,  0,  0,  0,  0, 38, 39,  0,  0,  0,  0, 33,  0, 19, 23,  0, 26,  0, 24, 30,  0,  0,  0, 31,  0,  0,  0
6, 11202, 1,KF0LSY,    -0.19, 3,   boost,   -0.50,  86698.00, 1295.65,    0.66,   44.43, 37.6, 7.46, 7.47, 3.57,   9.76,   0.75,  -0.71,  -1.98,  -0.23,  -0.35,   0.24,   0.25,   0.13,   6.25, 7.51, 0.00, 0.00, 0.00, 0.00, 1, 1, 11,  32.9394083,-106.9114995,  1397.0, 2024,  6, 20, 15, 33, 40,        0,        0,   0,   0,   1.3,   0.7,   1.1,  0,  0,  0,  0, 28, 20,  0,  0,  0,  0, 38, 39,  0,  0,  0,  0, 33,  0, 19, 23,  0, 26,  0, 24, 30,  0,  0,  0, 31,  0,  0,  0
6, 11202, 1,KF0LSY,    -0.18, 3,   boost,    0.50,  86698.00, 1295.65,    0.66,   45.91, 37.6, 7.46, 7.47, 3.57,   9.84,   0.74,  -0.70,  -1.79,  -0.05,  -0.17,   0.23,   0.24,   0.13,   6.25, 7.51, 0.00, 0.00, 0.00, 0.00, 1, 1, 11,  32.9394083,-106.9114995,  1397.0, 2024,  6, 20, 15, 33, 40,        0,        0,   0,   0,   1.3,   0.7,   1.1,  0,  0,  0,  0, 28, 20,  0,  0,  0,  0, 38, 39,  0,  0,  0,  0, 33,  0, 19, 23,  0, 26,  0, 24, 30,  0,  0,  0, 31,  0,  0,  0
6, 11202, 1,KF0LSY,    -0.17, 3,   boost,   -0.50,  86714.00, 1294.14,   -0.85,   47.41, 37.6, 7.46, 7.47, 3.57,   9.82,   0.73,  -0.75,  -1.98,   0.08,   0.19,   0.24,   0.24,   0.13,   6.25, 7.51, 0.00, 0.00, 0.00, 0.00, 1, 1, 11,  32.9394083,-106.9114995,  1397.0, 2024,  6, 20, 15, 33, 40,        0,        0,   0,   0,   1.3,   0.7,   1.1,  0,  0,  0,  0, 28, 20,  0,  0,  0,  0, 38, 39,  0,  0,  0,  0, 33,  0, 19, 23,  0, 26,  0, 24, 30,  0,  0,  0, 31,  0,  0,  0
6, 11202, 1,KF0LSY,    -0.16, 3,   boost,   -0.00,  86714.00, 1294.14,   -0.85,   48.95, 37.6, 7.46, 7.47, 3.57,   9.80,   0.77,  -0.77,  -2.16,   0.02,  -0.35,   0.24,   0.25,   0.13,   6.25, 7.51, 0.00, 0.00, 0.00, 0.00, 1, 1, 11,  32.9394083,-106.9114995,  1397.0, 2024,  6, 20, 15, 33, 40,        0,        0,   0,   0,   1.3,   0.7,   1.1,  0,  0,  0,  0, 28, 20,  0,  0,  0,  0, 38, 39,  0,  0,  0,  0, 33,  0, 19, 23,  0, 26,  0, 24, 30,  0,  0,  0, 31,  0,  0,  0
6, 11202, 1,KF0LSY,    -0.15, 3,   boost,   -0.50,  86698.00, 1295.65,    0.66,   50.52, 37.6, 7.46, 7.47, 3.57,   9.83,   0.75,  -0.83,  -2.65,  -0.11,  -0.29,   0.24,   0.25,   0.13,   6.25, 7.51, 0.00, 0.00, 0.00, 0.00, 1, 1, 11,  32.9394083,-106.9114995,  1397.0, 2024,  6, 20, 15, 33, 40,        0,        0,   0,   0,   1.3,   0.7,   1.1,  0,  0,  0,  0, 28, 20,  0,  0,  0,  0, 38, 39,  0,  0,  0,  0, 33,  0, 19, 23,  0, 26,  0, 24, 30,  0,  0,  0, 31,  0,  0,  0
6, 11202, 1,KF0LSY,    -0.14, 3,   boost,   -2.01,  86698.00, 1295.65,    0.66,   52.12, 37.6, 7.46, 7.47, 3.57,   9.79,   0.72,  -0.75,  -3.01,   0.08,   0.19,   0.24,   0.25,   0.13,   6.25, 7.51, 0.00, 0.00, 0.00, 0.00, 1, 1, 11,  32.9394083,-106.9114995,  1397.0, 2024,  6, 20, 15, 33, 40,        0,        0,   0,   0,   1.3,   0.7,   1.1,  0,  0,  0,  0, 28, 20,  0,  0,  0,  0, 38, 39,  0,  0,  0,  0, 33,  0, 19, 23,  0, 26,  0, 24, 30,  0,  0,  0, 31,  0,  0,  0
6, 11202, 1,KF0LSY,    -0.13, 3,   boost,   -0.00,  86700.00, 1295.46,    0.47,   53.72, 37.6, 7.46, 7.47, 3.57,   9.79,   0.75,  -0.75,  -3.14,   0.08,  -0.05,   0.24,   0.24,   0.13,   6.25, 7.51, 0.00, 0.00, 0.00, 0.00, 1, 1, 11,  32.9394083,-106.9114995,  1397.0, 2024,  6, 20, 15, 33, 40,        0,        0,   0,   0,   1.3,   0.7,   1.1,  0,  0,  0,  0, 28, 20,  0,  0,  0,  0, 38, 39,  0,  0,  0,  0, 33,  0, 19, 23,  0, 26,  0, 24, 30,  0,  0,  0, 31,  0,  0,  0
6, 11202, 1,KF0LSY,    -0.12, 3,   boost,    0.50,  86700.00, 1295.46,    0.47,   55.35, 37.6, 7.46, 7.47, 3.57,   9.81,   0.74,  -0.73,  -3.07,  -0.11,   0.13,   0.24,   0.25,   0.13,   6.25, 7.51, 0.00, 0.00, 0.00, 0.00, 1, 1, 11,  32.9394083,-106.9114995,  1397.0, 2024,  6, 20, 15, 33, 40,        0,        0,   0,   0,   1.3,   0.7,   1.1,  0,  0,  0,  0, 28, 20,  0,  0,  0,  0, 38, 39,  0,  0,  0,  0, 33,  0, 19, 23,  0, 26,  0, 24, 30,  0,  0,  0, 31,  0,  0,  0
6, 11202, 1,KF0LSY,    -0.11, 3,   boost,   -1.01,  86700.00, 1295.46,    0.47,   57.03, 37.6, 7.46, 7.47, 3.57,   9.84,   0.71,  -0.73,  -2.65,  -0.11,  -0.23,   0.23,   0.25,   0.13,   6.25, 7.51, 0.00, 0.00, 0.00, 0.00, 1, 1, 11,  32.9394083,-106.9114995,  1397.0, 2024,  6, 20, 15, 33, 40,        0,        0,   0,   0,   1.3,   0.7,   1.1,  0,  0,  0,  0, 28, 20,  0,  0,  0,  0, 38, 39,  0,  0,  0,  0, 33,  0, 19, 23,  0, 26,  0, 24, 30,  0,  0,  0, 31,  0,  0,  0
6, 11202, 1,KF0LSY,    -0.10, 3,   boost,   -1.01,  86700.00, 1295.46,    0.47,   58.75, 37.6, 7.46, 7.47, 3.57,   9.86,   0.80,  -0.74,  -2.16,   0.02,   0.19,   0.24,   0.25,   0.13,   6.25, 7.51, 0.00, 0.00, 0.00, 0.00, 1, 1, 11,  32.9394083,-106.9114995,  1397.0, 2024,  6, 20, 15, 33, 40,        0,        0,   0,   0,   1.3,   0.7,   1.1,  0,  0,  0,  0, 28, 20,  0,  0,  0,  0, 38, 39,  0,  0,  0,  0, 33,  0, 19, 23,  0, 26,  0, 24, 30,  0,  0,  0, 31,  0,  0,  0
6, 11202, 1,KF0LSY,    -0.09, 3,   boost,    0.50,  86697.00, 1295.74,    0.76,   60.52, 37.6, 7.46, 7.47, 3.57,   9.94,   0.80,  -0.65,  -1.61,   0.02,  -0.17,   0.24,   0.25,   0.13,   6.25, 7.51, 0.00, 0.00, 0.00, 0.00, 1, 1, 11,  32.9394083,-106.9114995,  1397.0, 2024,  6, 20, 15, 33, 40,        0,        0,   0,   0,   1.3,   0.7,   1.1,  0,  0,  0,  0, 28, 20,  0,  0,  0,  0, 38, 39,  0,  0,  0,  0, 33,  0, 19, 23,  0, 26,  0, 24, 30,  0,  0,  0, 31,  0,  0,  0
6, 11202, 1,KF0LSY,    -0.08, 3,   boost,    8.55,  86697.00, 1295.74,    0.76,   62.34, 37.6, 7.46, 7.47, 3.57,  10.92,   0.73,  -0.45,  -0.88,  -0.41,  -0.11,   0.24,   0.25,   0.13,   6.25, 7.51, 0.00, 0.00, 0.00, 0.00, 1, 1, 11,  32.9394083,-106.9114995,  1397.0, 2024,  6, 20, 15, 33, 40,        0,        0,   0,   0,   1.3,   0.7,   1.1,  0,  0,  0,  0, 28, 20,  0,  0,  0,  0, 38, 39,  0,  0,  0,  0, 33,  0, 19, 23,  0, 26,  0, 24, 30,  0,  0,  0, 31,  0,  0,  0
6, 11202, 1,KF0LSY,    -0.07, 3,   boost,   23.13,  86719.00, 1293.67,   -1.32,   64.20, 37.6, 7.46, 7.47, 3.57,  13.25,   0.50,  -0.38,  -2.77,   0.08,   0.50,   0.24,   0.25,   0.13,   6.25, 7.51, 0.00, 0.00, 0.00, 0.00, 1, 1, 11,  32.9394083,-106.9114995,  1397.0, 2024,  6, 20, 15, 33, 40,        0,        0,   0,   0,   1.3,   0.7,   1.1,  0,  0,  0,  0, 28, 20,  0,  0,  0,  0, 38, 39,  0,  0,  0,  0, 33,  0, 19, 23,  0, 26,  0, 24, 30,  0,  0,  0, 31,  0,  0,  0
6, 11202, 1,KF0LSY,    -0.06, 3,   boost,   36.21,  86719.00, 1293.67,   -1.32,   66.11, 37.6, 7.46, 7.47, 3.57,  25.45,   0.35,  -3.67,   0.71,   0.63,   0.93,   0.24,   0.24,   0.13,   6.25, 7.51, 0.00, 0.00, 0.00, 0.00, 1, 1, 11,  32.9394083,-106.9114995,  1397.0, 2024,  6, 20, 15, 33, 40,        0,        0,   0,   0,   1.3,   0.7,   1.1,  0,  0,  0,  0, 28, 20,  0,  0,  0,  0, 38, 39,  0,  0,  0,  0, 33,  0, 19, 23,  0, 26,  0, 24, 30,  0,  0,  0, 31,  0,  0,  0
6, 11202, 1,KF0LSY,    -0.05, 3,   boost,   79.46,  86800.00, 1286.02,   -8.97,   68.07, 37.6, 7.46, 7.47, 3.57,  96.68,   2.20,   5.77,   6.87,  13.44,  16.67,   0.24,   0.24,   0.12,   6.25, 7.51, 0.00, 0.00, 0.00, 0.00, 1, 1, 11,  32.9394083,-106.9114995,  1397.0, 2024,  6, 20, 15, 33, 40,        0,        0,   0,   0,   1.3,   0.7,   1.1,  0,  0,  0,  0, 28, 20,  0,  0,  0,  0, 38, 39,  0,  0,  0,  0, 33,  0, 19, 23,  0, 26,  0, 24, 30,  0,  0,  0, 31,  0,  0,  0
6, 11202, 1,KF0LSY,    -0.04, 3,   boost,   81.97,  86800.00, 1286.02,   -8.97,   70.07, 37.6, 7.46, 7.47, 3.57,  88.55,  -0.40,  -0.35,  -4.60,  -0.29,   0.93,   0.23,   0.24,   0.13,   6.25, 7.51, 0.00, 0.00, 0.00, 0.00, 1, 1, 11,  32.9394083,-106.9114995,  1397.0, 2024,  6, 20, 15, 33, 40,        0,        0,   0,   0,   1.3,   0.7,   1.1,  0,  0,  0,  0, 28, 20,  0,  0,  0,  0, 38, 39,  0,  0,  0,  0, 33,  0, 19, 23,  0, 26,  0, 24, 30,  0,  0,  0, 31,  0,  0,  0
6, 11202, 1,KF0LSY,    -0.03, 3,   boost,   93.54,  86684.00, 1296.97,    1.98,   72.13, 37.6, 7.46, 7.47, 3.57,  80.83,   5.79,  -3.56, -11.38,  -1.21,   1.78,   0.23,   0.24,   0.13,   6.25, 7.51, 0.00, 0.00, 0.00, 0.00, 1, 1, 11,  32.9394083,-106.9114995,  1397.0, 2024,  6, 20, 15, 33, 40,        0,        0,   0,   0,   1.3,   0.7,   1.1,  0,  0,  0,  0, 28, 20,  0,  0,  0,  0, 38, 39,  0,  0,  0,  0, 33,  0, 19, 23,  0, 26,  0, 24, 30,  0,  0,  0, 31,  0,  0,  0
6, 11202, 1,KF0LSY,    -0.02, 3,   boost,   99.07,  86684.00, 1296.97,    1.98,   74.23, 37.6, 7.46, 7.47, 3.57, 101.10,  -1.06,  -2.74, -22.73,   0.56,   0.62,   0.24,   0.24,   0.13,   6.25, 7.51, 0.00, 0.00, 0.00, 0.00, 1, 1, 11,  32.9394083,-106.9114995,  1397.0, 2024,  6, 20, 15, 33, 40,        0,        0,   0,   0,   1.3,   0.7,   1.1,  0,  0,  0,  0, 28, 20,  0,  0,  0,  0, 38, 39,  0,  0,  0,  0, 33,  0, 19, 23,  0, 26,  0, 24, 30,  0,  0,  0, 31,  0,  0,  0
6, 11202, 1,KF0LSY,    -0.01, 3,   boost,  108.12,  86703.00, 1295.18,    0.19,   76.39, 37.6, 7.46, 7.47, 3.57, 112.26,   2.62,   0.27, -11.07,  -0.90,   1.17,   0.24,   0.24,   0.13,   6.25, 7.51, 0.00, 0.00, 0.00, 0.00, 1, 1, 11,  32.9394083,-106.9114995,  1397.0, 2024,  6, 20, 15, 33, 40,        0,        0,   0,   0,   1.3,   0.7,   1.1,  0,  0,  0,  0, 28, 20,  0,  0,  0,  0, 38, 39,  0,  0,  0,  0, 33,  0, 19, 23,  0, 26,  0, 24, 30,  0,  0,  0, 31,  0,  0,  0
6, 11202, 1,KF0LSY,     0.00, 3,   boost,  114.16,  86703.00, 1295.18,    0.19,   78.60, 37.6, 7.46, 7.47, 3.57, 121.39,   3.63,  -0.60, -17.85,   0.99,   0.50,   0.23,   0.24,   0.13,   6.25, 7.51, 0.00, 0.00, 0.00, 0.00, 1, 1, 11,  32.9394083,-106.9114995,  1397.0, 2024,  6, 20, 15, 33, 40,        0,        0,   0,   0,   1.3,   0.7,   1.1,  0,  0,  0,  0, 28, 20,  0,  0,  0,  0, 38, 39,  0,  0,  0,  0, 33,  0, 19, 23,  0, 26,  0, 24, 30,  0,  0,  0, 31,  0,  0,  0
6, 11202, 1,KF0LSY,     0.00, 3,   boost,  114.16,  86703.00, 1295.18,    0.19,   78.60, 37.6, 7.46, 7.47, 3.57, 121.39,   3.63,  -0.60, -17.85,   0.99,   0.50,   0.23,   0.24,   0.13,   6.25, 7.51, 0.00, 0.00, 0.00, 0.00, 1, 1, 11,  32.9394083,-106.9114995,  1397.0, 2024,  6, 20, 15, 33, 40,        0,        0,   0,   0,   1.3,   0.7,   1.1,  0,  0,  0,  0, 28, 20,  0,  0,  0,  0, 38, 39,  0,  0,  0,  0, 33,  0, 19, 23,  0, 26,  0, 24, 30,  0,  0,  0, 31,  0,  0,  0
6, 11202, 1,KF0LSY,     0.00, 3,   boost,  114.16,  86703.00, 1295.18,    0.19,   78.60, 37.6, 7.46, 7.47, 3.57, 121.39,   3.63,  -0.60, -17.85,   0.99,   0.50,   0.23,   0.24,   0.13,   6.25, 7.51, 0.00, 0.00, 0.00, 0.00, 1, 1, 11,  32.9394083,-106.9114995,  1397.0, 2024,  6, 20, 15, 33, 40,        0,        0,   0,   0,   1.3,   0.7,   1.1,  0,  0,  0,  0, 28, 20,  0,  0,  0,  0, 38, 39,  0,  0,  0,  0, 33,  0, 19, 23,  0, 26,  0, 24, 30,  0,  0,  0, 31,  0,  0,  0
6, 11202, 1,KF0LSY,     0.00, 3,   boost,  114.16,  86703.00, 1295.18,    0.19,   78.60, 37.6, 7.46, 7.47, 3.57, 121.39,   3.63,  -0.60, -17.85,   0.99,   0.50,   0.23,   0.24,   0.13,   6.25, 7.51, 0.00, 0.00, 0.00, 0.00, 1, 1, 11,  32.9394083,-106.9114995,  1397.0, 2024,  6, 20, 15, 33, 40,        0,        0,   0,   0,   1.3,   0.7,   1.1,  0,  0,  0,  0, 28, 20,  0,  0,  0,  0, 38, 39,  0,  0,  0,  0, 33,  0, 19, 23,  0, 26,  0, 24, 30,  0,  0,  0, 31,  0,  0,  0
6, 11202, 1,KF0LSY,     0.00, 3,   boost,  114.16,  86703.00, 1295.18,    0.19,   78.60, 37.6, 7.46, 7.47, 3.57, 121.39,   3.63,  -0.60, -17.85,   0.99,   0.50,   0.23,   0.24,   0.13,   6.25, 7.51, 0.00, 0.00, 0.00, 0.00, 1, 1, 11,  32.9394083,-106.9114995,  1397.0, 2024,  6, 20, 15, 33, 40,        0,        0,   0,   0,   1.3,   0.7,   1.1,  0,  0,  0,  0, 28, 20,  0,  0,  0,  0, 38, 39,  0,  0,  0,  0, 33,  0, 19, 23,  0, 26,  0, 24, 30,  0,  0,  0, 31,  0,  0,  0
6, 11202, 1,KF0LSY,     0.00, 3,   boost,  114.16,  86703.00, 1295.18,    0.19,   78.60, 37.6, 7.46, 7.47, 3.57, 121.39,   3.63,  -0.60, -17.85,   0.99,   0.50,   0.23,   0.24,   0.13,   6.25, 7.51, 0.00, 0.00, 0.00, 0.00, 1, 1, 11,  32.9394083,-106.9114995,  1397.0, 2024,  6, 20, 15, 33, 40,        0,        0,   0,   0,   1.3,   0.7,   1.1,  0,  0,  0,  0, 28, 20,  0,  0,  0,  0, 38, 39,  0,  0,  0,  0, 33,  0, 19, 23,  0, 26,  0, 24, 30,  0,  0,  0, 31,  0,  0,  0
6, 11202, 1,KF0LSY,     0.00, 3,   boost,  114.16,  86703.00, 1295.18,    0.19,   78.60, 37.6, 7.46, 7.47, 3.57, 121.39,   3.63,  -0.60, -17.85,   0.99,   0.50,   0.23,   0.24,   0.13,   6.26, 7.51, 0.00, 0.00, 0.00, 0.00, 1, 1, 11,  32.9394083,-106.9114995,  1397.0, 2024,  6, 20, 15, 33, 40,        0,        0,   0,   0,   1.3,   0.7,   1.1,  0,  0,  0,  0, 28, 20,  0,  0,  0,  0, 38, 39,  0,  0,  0,  0, 33,  0, 19, 23,  0, 26,  0, 24, 30,  0,  0,  0, 31,  0,  0,  0
6, 11202, 1,KF0LSY,     0.00, 3,   boost,  114.16,  86703.00, 1295.18,    0.19,   78.60, 37.6, 7.46, 7.47, 3.57, 121.39,   3.63,  -0.60, -17.85,   0.99,   0.50,   0.23,   0.24,   0.13,   6.25, 7.51, 0.00, 0.00, 0.00, 0.00, 1, 1, 11,  32.9394083,-106.9114995,  1397.0, 2024,  6, 20, 15, 33, 40,        0,        0,   0,   0,   1.3,   0.7,   1.1,  0,  0,  0,  0, 28, 20,  0,  0,  0,  0, 38, 39,  0,  0,  0,  0, 33,  0, 19, 23,  0, 26,  0, 24, 30,  0,  0,  0, 31,  0,  0,  0
6, 11202, 1,KF0LSY,     0.00, 3,   boost,  114.16,  86703.00, 1295.18,    0.19,   78.60, 37.6, 7.46, 7.47, 3.57, 121.39,   3.63,  -0.60, -17.85,   0.99,   0.50,   0.23,   0.24,   0.13,   6.25, 7.51, 0.00, 0.00, 0.00, 0.00, 1, 1, 11,  32.9394083,-106.9114995,  1397.0, 2024,  6, 20, 15, 33, 40,        0,        0,   0,   0,   1.3,   0.7,   1.1,  0,  0,  0,  0, 28, 20,  0,  0,  0,  0, 38, 39,  0,  0,  0,  0, 33,  0, 19, 23,  0, 26,  0, 24, 30,  0,  0,  0, 31,  0,  0,  0
6, 11202, 1,KF0LSY,     0.00, 3,   boost,  114.16,  86703.00, 1295.18,    0.19,   78.60, 37.6, 7.46, 7.47, 3.57, 121.39,   3.63,  -0.60, -17.85,   0.99,   0.50,   0.23,   0.24,   0.13,   6.25, 7.51, 0.00, 0.00, 0.00, 0.00, 1, 1, 11,  32.9394083,-106.9114995,  1397.0, 2024,  6, 20, 15, 33, 40,        0,        0,   0,   0,   1.3,   0.7,   1.1,  0,  0,  0,  0, 28, 20,  0,  0,  0,  0, 38, 39,  0,  0,  0,  0, 33,  0, 19, 23,  0, 26,  0, 24, 30,  0,  0,  0, 31,  0,  0,  0
6, 11202, 1,KF0LSY,     0.00, 3,   boost,  114.16,  86703.00, 1295.18,    0.19,   78.60, 37.6, 7.46, 7.47, 3.57, 121.39,   3.63,  -0.60, -17.85,   0.99,   0.50,   0.23,   0.24,   0.13,   6.25, 7.51, 0.00, 0.00, 0.00, 0.00, 1, 1, 11,  32.9394083,-106.9114995,  1397.0, 2024,  6, 20, 15, 33, 40,        0,        0,   0,   0,   1.3,   0.7,   1.1,  0,  0,  0,  0, 28, 20,  0,  0,  0,  0, 38, 39,  0,  0,  0,  0, 33,  0, 19, 23,  0, 26,  0, 24, 30,  0,  0,  0, 31,  0,  0,  0
6, 11202, 1,KF0LSY,     0.00, 3,   boost,  114.16,  86703.00, 1295.18,    0.19,   78.60, 37.6, 7.46, 7.47, 3.57, 121.39,   3.63,  -0.60, -17.85,   0.99,   0.50,   0.23,   0.24,   0.13,   6.25, 7.51, 0.00, 0.00, 0.00, 0.00, 1, 1, 11,  32.9394083,-106.9114995,  1397.0, 2024,  6, 20, 15, 33, 40,        0,        0,   0,   0,   1.3,   0.7,   1.1,  0,  0,  0,  0, 28, 20,  0,  0,  0,  0, 38, 39,  0,  0,  0,  0, 33,  0, 19, 23,  0, 26,  0, 24, 30,  0,  0,  0, 31,  0,  0,  0
6, 11202, 1,KF0LSY,     0.00, 3,   boost,  114.16,  86703.00, 1295.18,    0.19,   78.60, 37.6, 7.46, 7.47, 3.57, 121.39,   3.63,  -0.60, -17.85,   0.99,   0.50,   0.23,   0.24,   0.13,   6.25, 7.51, 0.00, 0.00, 0.00, 0.00, 1, 1, 11,  32.9394083,-106.9114995,  1397.0, 2024,  6, 20, 15, 33, 40,        0,        0,   0,   0,   1.3,   0.7,   1.1,  0,  0,  0,  0, 28, 20,  0,  0,  0,  0, 38, 39,  0,  0,  0,  0, 33,  0, 19, 23,  0, 26,  0, 24, 30,  0,  0,  0, 31,  0,  0,  0
6, 11202, 1,KF0LSY,     0.00, 3,   boost,  114.16,  86703.00, 1295.18,    0.19,   78.60, 37.6, 7.46, 7.47, 3.57, 121.39,   3.63,  -0.60, -17.85,   0.99,   0.50,   0.23,   0.24,   0.13,   6.25, 7.51, 0.00, 0.00, 0.00, 0.00, 1, 1, 11,  32.9394083,-106.9114995,  1397.0, 2024,  6, 20, 15, 33, 40,        0,        0,   0,   0,   1.3,   0.7,   1.1,  0,  0,  0,  0, 28, 20,  0,  0,  0,  0, 38, 39,  0,  0,  0,  0, 33,  0, 19, 23,  0, 26,  0, 24, 30,  0,  0,  0, 31,  0,  0,  0
6, 11202, 1,KF0LSY,     0.00, 3,   boost,  114.16,  86703.00, 1295.18,    0.19,   78.60, 37.6, 7.46, 7.47, 3.57, 121.39,   3.63,  -0.60, -17.85,   0.99,   0.50,   0.23,   0.24,   0.13,   6.25, 7.51, 0.00, 0.00, 0.00, 0.00, 1, 1, 11,  32.9394083,-106.9114995,  1397.0, 2024,  6, 20, 15, 33, 40,        0,        0,   0,   0,   1.3,   0.7,   1.1,  0,  0,  0,  0, 28, 20,  0,  0,  0,  0, 38, 39,  0,  0,  0,  0, 33,  0, 19, 23,  0, 26,  0, 24, 30,  0,  0,  0, 31,  0,  0,  0
6, 11202, 1,KF0LSY,     0.00, 3,   boost,  114.16,  86703.00, 1295.18,    0.19,   78.60, 37.6, 7.46, 7.47, 3.57, 121.39,   3.63,  -0.60, -17.85,   0.99,   0.50,   0.23,   0.24,   0.13,   6.24, 7.51, 0.00, 0.00, 0.00, 0.00, 1, 1, 11,  32.9394083,-106.9114995,  1397.0, 2024,  6, 20, 15, 33, 40,        0,        0,   0,   0,   1.3,   0.7,   1.1,  0,  0,  0,  0, 28, 20,  0,  0,  0,  0, 38, 39,  0,  0,  0,  0, 33,  0, 19, 23,  0, 26,  0, 24, 30,  0,  0,  0, 31,  0,  0,  0
6, 11202, 1,KF0LSY,     0.00, 3,   boost,  114.16,  86703.00, 1295.18,    0.19,   78.60, 37.6, 7.46, 7.47, 3.57, 121.39,   3.63,  -0.60, -17.85,   0.99,   0.50,   0.23,   0.24,   0.13,   6.24, 7.51, 0.00, 0.00, 0.00, 0.00, 1, 1, 11,  32.9394083,-106.9114995,  1397.0, 2024,  6, 20, 15, 33, 40,        0,        0,   0,   0,   1.3,   0.7,   1.1,  0,  0,  0,  0, 28, 20,  0,  0,  0,  0, 38, 39,  0,  0,  0,  0, 33,  0, 19, 23,  0, 26,  0, 24, 30,  0,  0,  0, 31,  0,  0,  0
6, 11202, 1,KF0LSY,     0.00, 3,   boost,  114.16,  86703.00, 1295.18,    0.19,   78.60, 37.6, 7.46, 7.47, 3.57, 121.39,   3.63,  -0.60, -17.85,   0.99,   0.50,   0.23,   0.24,   0.13,   6.24, 7.51, 0.00, 0.00, 0.00, 0.00, 1, 1, 11,  32.9394083,-106.9114995,  1397.0, 2024,  6, 20, 15, 33, 40,        0,        0,   0,   0,   1.3,   0.7,   1.1,  0,  0,  0,  0, 28, 20,  0,  0,  0,  0, 38, 39,  0,  0,  0,  0, 33,  0, 19, 23,  0, 26,  0, 24, 30,  0,  0,  0, 31,  0,  0,  0
6, 11202, 1,KF0LSY,     0.00, 3,   boost,  114.16,  86703.00, 1295.18,    0.19,   78.60, 37.6, 7.46, 7.47, 3.57, 121.39,   3.63,  -0.60, -17.85,   0.99,   0.50,   0.23,   0.24,   0.13,   6.24, 7.51, 0.00, 0.00, 0.00, 0.00, 1, 1, 11,  32.9394083,-106.9114995,  1397.0, 2024,  6, 20, 15, 33, 40,        0,        0,   0,   0,   1.3,   0.7,   1.1,  0,  0,  0,  0, 28, 20,  0,  0,  0,  0, 38, 39,  0,  0,  0,  0, 33,  0, 19, 23,  0, 26,  0, 24, 30,  0,  0,  0, 31,  0,  0,  0
6, 11202, 1,KF0LSY,     0.00, 3,   boost,  114.16,  86703.00, 1295.18,    0.19,   78.60, 37.6, 7.46, 7.47, 3.57, 121.39,   3.63,  -0.60, -17.85,   0.99,   0.50,   0.23,   0.24,   0.13,   6.24, 7.51, 0.00, 0.00, 0.00, 0.00, 1, 1, 11,  32.9394083,-106.9114995,  1397.0, 2024,  6, 20, 15, 33, 40,        0,        0,   0,   0,   1.3,   0.7,   1.1,  0,  0,  0,  0, 28, 20,  0,  0,  0,  0, 38, 39,  0,  0,  0,  0, 33,  0, 19, 23,  0, 26,  0, 24, 30,  0,  0,  0, 31,  0,  0,  0
6, 11202, 1,KF0LSY,     0.00, 3,   boost,  114.16,  86703.00, 1295.18,    0.19,   78.60, 37.6, 7.46, 7.47, 3.57, 121.39,   3.63,  -0.60, -17.85,   0.99,   0.50,   0.23,   0.24,   0.13,   6.24, 7.51, 0.00, 0.00, 0.00, 0.00, 1, 1, 11,  32.9394083,-106.9114995,  1397.0, 2024,  6, 20, 15, 33, 40,        0,        0,   0,   0,   1.3,   0.7,   1.1,  0,  0,  0,  0, 28, 20,  0,  0,  0,  0, 38, 39,  0,  0,  0,  0, 33,  0, 19, 23,  0, 26,  0, 24, 30,  0,  0,  0, 31,  0,  0,  0
6, 11202, 1,KF0LSY,     0.00, 3,   boost,  114.16,  86703.00, 1295.18,    0.19,   78.60, 37.6, 7.46, 7.47, 3.57, 121.39,   3.63,  -0.60, -17.85,   0.99,   0.50,   0.23,   0.24,   0.13,   6.24, 7.51, 0.00, 0.00, 0.00, 0.00, 1, 1, 11,  32.9394083,-106.9114995,  1397.0, 2024,  6, 20, 15, 33, 40,        0,        0,   0,   0,   1.3,   0.7,   1.1,  0,  0,  0,  0, 28, 20,  0,  0,  0,  0, 38, 39,  0,  0,  0,  0, 33,  0, 19, 23,  0, 26,  0, 24, 30,  0,  0,  0, 31,  0,  0,  0
6, 11202, 1,KF0LSY,     0.00, 3,   boost,  114.16,  86703.00, 1295.18,    0.19,   78.60, 37.6, 7.46, 7.47, 3.57, 121.39,   3.63,  -0.60, -17.85,   0.99,   0.50,   0.23,   0.24,   0.13,   6.24, 7.51, 0.00, 0.00, 0.00, 0.00, 1, 1, 11,  32.9394083,-106.9114995,  1397.0, 2024,  6, 20, 15, 33, 40,        0,        0,   0,   0,   1.3,   0.7,   1.1,  0,  0,  0,  0, 28, 20,  0,  0,  0,  0, 38, 39,  0,  0,  0,  0, 33,  0, 19, 23,  0, 26,  0, 24, 30,  0,  0,  0, 31,  0,  0,  0
6, 11202, 1,KF0LSY,     0.00, 3,   boost,  114.16,  86703.00, 1295.18,    0.19,   78.60, 37.6, 7.46, 7.47, 3.57, 121.39,   3.63,  -0.60, -17.85,   0.99,   0.50,   0.23,   0.24,   0.13,   6.24, 7.51, 0.00, 0.00, 0.00, 0.00, 1, 1, 11,  32.9394083,-106.9114995,  1397.0, 2024,  6, 20, 15, 33, 40,        0,        0,   0,   0,   1.3,   0.7,   1.1,  0,  0,  0,  0, 28, 20,  0,  0,  0,  0, 38, 39,  0,  0,  0,  0, 33,  0, 19, 23,  0, 26,  0, 24, 30,  0,  0,  0, 31,  0,  0,  0
6, 11202, 1,KF0LSY,     0.00, 3,   boost,  114.16,  86703.00, 1295.18,    0.19,   78.60, 37.6, 7.46, 7.47, 3.57, 121.39,   3.63,  -0.60, -17.85,   0.99,   0.50,   0.23,   0.24,   0.13,   6.24, 7.51, 0.00, 0.00, 0.00, 0.00, 1, 1, 11,  32.9394083,-106.9114995,  1397.0, 2024,  6, 20, 15, 33, 40,        0,        0,   0,   0,   1.3,   0.7,   1.1,  0,  0,  0,  0, 28, 20,  0,  0,  0,  0, 38, 39,  0,  0,  0,  0, 33,  0, 19, 23,  0, 26,  0, 24, 30,  0,  0,  0, 31,  0,  0,  0
6, 11202, 1,KF0LSY,     0.00, 3,   boost,  114.16,  86703.00, 1295.18,    0.19,   78.60, 37.6, 7.46, 7.47, 3.57, 121.39,   3.63,  -0.60, -17.85,   0.99,   0.50,   0.23,   0.24,   0.13,   6.24, 7.51, 0.00, 0.00, 0.00, 0.00, 1, 1, 11,  32.9394083,-106.9114995,  1397.0, 2024,  6, 20, 15, 33, 40,        0,        0,   0,   0,   1.3,   0.7,   1.1,  0,  0,  0,  0, 28, 20,  0,  0,  0,  0, 38, 39,  0,  0,  0,  0, 33,  0, 19, 23,  0, 26,  0, 24, 30,  0,  0,  0, 31,  0,  0,  0
6, 11202, 1,KF0LSY,     0.00, 3,   boost,  114.16,  86703.00, 1295.18,    0.19,   78.60, 37.6, 7.46, 7.47, 3.57, 121.39,   3.63,  -0.60, -17.85,   0.99,   0.50,   0.23,   0.24,   0.13,   6.23, 7.51, 0.00, 0.00, 0.00, 0.00, 1, 1, 11,  32.9394083,-106.9114995,  1397.0, 2024,  6, 20, 15, 33, 40,        0,        0,   0,   0,   1.3,   0.7,   1.1,  0,  0,  0,  0, 28, 20,  0,  0,  0,  0, 38, 39,  0,  0,  0,  0, 33,  0, 19, 23,  0, 26,  0, 24, 30,  0,  0,  0, 31,  0,  0,  0
6, 11202, 1,KF0LSY,     0.00, 3,   boost,  114.16,  86703.00, 1295.18,    0.19,   78.60, 37.6, 7.46, 7.47, 3.57, 121.39,   3.63,  -0.60, -17.85,   0.99,   0.50,   0.23,   0.24,   0.13,   6.24, 7.51, 0.00, 0.00, 0.00, 0.00, 1, 1, 11,  32.9394083,-106.9114995,  1397.0, 2024,  6, 20, 15, 33, 40,        0,        0,   0,   0,   1.3,   0.7,   1.1,  0,  0,  0,  0, 28, 20,  0,  0,  0,  0, 38, 39,  0,  0,  0,  0, 33,  0, 19, 23,  0, 26,  0, 24, 30,  0,  0,  0, 31,  0,  0,  0
6, 11202, 1,KF0LSY,     0.00, 3,   boost,  114.16,  86703.00, 1295.18,    0.19,   78.60, 37.6, 7.46, 7.47, 3.57, 121.39,   3.63,  -0.60, -17.85,   0.99,   0.50,   0.23,   0.24,   0.13,   6.25, 7.51, 0.00, 0.00, 0.00, 0.00, 1, 1, 11,  32.9394083,-106.9114995,  1397.0, 2024,  6, 20, 15, 33, 40,        0,        0,   0,   0,   1.3,   0.7,   1.1,  0,  0,  0,  0, 28, 20,  0,  0,  0,  0, 38, 39,  0,  0,  0,  0, 33,  0, 19, 23,  0, 26,  0, 24, 30,  0,  0,  0, 31,  0,  0,  0
6, 11202, 1,KF0LSY,     0.00, 3,   boost,  114.16,  86703.00, 1295.18,    0.19,   78.60, 37.6, 7.46, 7.47, 3.57, 121.39,   3.63,  -0.60, -17.85,   0.99,   0.50,   0.23,   0.24,   0.13,   6.46, 7.51, 0.00, 0.00, 0.00, 0.00, 1, 1, 11,  32.9394083,-106.9114995,  1397.0, 2024,  6, 20, 15, 33, 40,        0,        0,   0,   0,   1.3,   0.7,   1.1,  0,  0,  0,  0, 28, 20,  0,  0,  0,  0, 38, 39,  0,  0,  0,  0, 33,  0, 19, 23,  0, 26,  0, 24, 30,  0,  0,  0, 31,  0,  0,  0
6, 11202, 1,KF0LSY,     0.00, 3,   boost,  114.16,  86703.00, 1295.18,    0.19,   78.60, 37.6, 7.46, 7.47, 3.57, 121.39,   3.63,  -0.60, -17.85,   0.99,   0.50,   0.23,   0.24,   0.13,   6.47, 7.51, 0.00, 0.00, 0.00, 0.00, 1, 1, 11,  32.9394083,-106.9114995,  1397.0, 2024,  6, 20, 15, 33, 40,        0,        0,   0,   0,   1.3,   0.7,   1.1,  0,  0,  0,  0, 28, 20,  0,  0,  0,  0, 38, 39,  0,  0,  0,  0, 33,  0, 19, 23,  0, 26,  0, 24, 30,  0,  0,  0, 31,  0,  0,  0
6, 11202, 1,KF0LSY,     0.00, 3,   boost,  114.16,  86703.00, 1295.18,    0.19,   78.60, 37.6, 7.46, 7.47, 3.57, 121.39,   3.63,  -0.60, -17.85,   0.99,   0.50,   0.23,   0.24,   0.13,   6.47, 7.51, 0.00, 0.00, 0.00, 0.00, 1, 1, 11,  32.9394083,-106.9114995,  1397.0, 2024,  6, 20, 15, 33, 40,        0,        0,   0,   0,   1.3,   0.7,   1.1,  0,  0,  0,  0, 28, 20,  0,  0,  0,  0, 38, 39,  0,  0,  0,  0, 33,  0, 19, 23,  0, 26,  0, 24, 30,  0,  0,  0, 31,  0,  0,  0
6, 11202, 1,KF0LSY,     0.00, 3,   boost,  114.16,  86703.00, 1295.18,    0.19,   78.60, 37.6, 7.46, 7.47, 3.57, 121.39,   3.63,  -0.60, -17.85,   0.99,   0.50,   0.23,   0.24,   0.13,   6.48, 7.51, 0.00, 0.00, 0.00, 0.00, 1, 1, 11,  32.9394083,-106.9114995,  1397.0, 2024,  6, 20, 15, 33, 40,        0,        0,   0,   0,   1.3,   0.7,   1.1,  0,  0,  0,  0, 28, 20,  0,  0,  0,  0, 38, 39,  0,  0,  0,  0, 33,  0, 19, 23,  0, 26,  0, 24, 30,  0,  0,  0, 31,  0,  0,  0
6, 11202, 1,KF0LSY,     0.00, 3,   boost,  114.16,  86703.00, 1295.18,    0.19,   78.60, 37.6, 7.46, 7.47, 3.57, 121.39,   3.63,  -0.60, -17.85,   0.99,   0.50,   0.23,   0.24,   0.13,   6.48, 7.51, 0.00, 0.00, 0.00, 0.00, 1, 1, 11,  32.9394083,-106.9114995,  1397.0, 2024,  6, 20, 15, 33, 40,        0,        0,   0,   0,   1.3,   0.7,   1.1,  0,  0,  0,  0, 28, 20,  0,  0,  0,  0, 38, 39,  0,  0,  0,  0, 33,  0, 19, 23,  0, 26,  0, 24, 30,  0,  0,  0, 31,  0,  0,  0
6, 11202, 1,KF0LSY,     0.00, 3,   boost,  114.16,  86703.00, 1295.18,    0.19,   78.60, 37.6, 7.46, 7.47, 3.57, 121.39,   3.63,  -0.60, -17.85,   0.99,   0.50,   0.23,   0.24,   0.13,   6.49, 7.51, 0.00, 0.00, 0.00, 0.00, 1, 1, 11,  32.9394083,-106.9114995,  1397.0, 2024,  6, 20, 15, 33, 40,        0,        0,   0,   0,   1.3,   0.7,   1.1,  0,  0,  0,  0, 28, 20,  0,  0,  0,  0, 38, 39,  0,  0,  0,  0, 33,  0, 19, 23,  0, 26,  0, 24, 30,  0,  0,  0, 31,  0,  0,  0
6, 11202, 1,KF0LSY,     0.01, 3,   boost,  126.73,  86737.00, 1291.97,   -3.02,   80.86, 37.6, 7.46, 7.47, 3.57, 124.20,  -1.37,  -4.99, -16.62,   0.99,   0.32,   0.23,   0.24,   0.13,   6.50, 7.51, 0.00, 0.00, 0.00, 0.00, 1, 1, 11,  32.9394083,-106.9114995,  1397.0, 2024,  6, 20, 15, 33, 40,        0,        0,   0,   0,   1.3,   0.7,   1.1,  0,  0,  0,  0, 28, 20,  0,  0,  0,  0, 38, 39,  0,  0,  0,  0, 33,  0, 19, 23,  0, 26,  0, 24, 30,  0,  0,  0, 31,  0,  0,  0
6, 11202, 1,KF0LSY,     0.01, 3,   boost,  126.73,  86737.00, 1291.97,   -3.02,   80.86, 37.6, 7.46, 7.47, 3.57, 124.20,  -1.37,  -4.99, -16.62,   0.99,   0.32,   0.23,   0.24,   0.13,   6.50, 7.51, 0.00, 0.00, 0.00, 0.00, 1, 1, 11,  32.9394083,-106.9114995,  1397.0, 2024,  6, 20, 15, 33, 40,        0,        0,   0,   0,   1.3,   0.7,   1.1,  0,  0,  0,  0, 28, 20,  0,  0,  0,  0, 38, 39,  0,  0,  0,  0, 33,  0, 19, 23,  0, 26,  0, 24, 30,  0,  0,  0, 31,  0,  0,  0
6, 11202, 1,KF0LSY,     0.02, 3,   boost,  123.71,  86737.00, 1291.97,   -3.02,   83.17, 37.6, 7.46, 7.48, 3.57, 128.54,   0.49,  -1.84,  -3.81,   0.81,  -0.35,   0.24,   0.24,   0.13,   6.51, 7.51, 0.00, 0.00, 0.00, 0.00, 1, 1, 11,  32.9394083,-106.9114995,  1397.0, 2024,  6, 20, 15, 33, 40,        0,        0,   0,   0,   1.3,   0.7,   1.1,  0,  0,  0,  0, 28, 20,  0,  0,  0,  0, 38, 39,  0,  0,  0,  0, 33,  0, 19, 23,  0, 26,  0, 24, 30,  0,  0,  0, 31,  0,  0,  0
6, 11202, 1,KF0LSY,     0.02, 3,   boost,  123.71,  86737.00, 1291.97,   -3.02,   83.17, 37.6, 7.46, 7.48, 3.57, 128.54,   0.49,  -1.84,  -3.81,   0.81,  -0.35,   0.24,   0.24,   0.13,   6.51, 7.51, 0.00, 0.00, 0.00, 0.00, 1, 1, 11,  32.9394083,-106.9114995,  1397.0, 2024,  6, 20, 15, 33, 40,        0,        0,   0,   0,   1.3,   0.7,   1.1,  0,  0,  0,  0, 28, 20,  0,  0,  0,  0, 38, 39,  0,  0,  0,  0, 33,  0, 19, 23,  0, 26,  0, 24, 30,  0,  0,  0, 31,  0,  0,  0
6, 11202, 1,KF0LSY,     0.03, 3,   boost,  125.22,  86707.00, 1294.80,   -0.19,   85.53, 37.6, 7.46, 7.48, 3.57, 132.53,   3.00,  -1.92,  -0.88,  -0.84,  -0.29,   0.23,   0.24,   0.13,   6.50, 7.51, 0.00, 0.00, 0.00, 0.00, 1, 1, 11,  32.9394083,-106.9114995,  1397.0, 2024,  6, 20, 15, 33, 40,        0,        0,   0,   0,   1.3,   0.7,   1.1,  0,  0,  0,  0, 28, 20,  0,  0,  0,  0, 38, 39,  0,  0,  0,  0, 33,  0, 19, 23,  0, 26,  0, 24, 30,  0,  0,  0, 31,  0,  0,  0
6, 11202, 1,KF0LSY,     0.04, 3,   boost,  125.22,  86707.00, 1294.80,   -0.19,   87.95, 37.6, 7.46, 7.48, 3.57, 134.31,  -0.93,  -1.37,   8.40,   1.30,  -1.64,   0.23,   0.24,   0.13,   6.49, 7.51, 0.00, 0.00, 0.00, 0.00, 1, 1, 11,  32.9394083,-106.9114995,  1397.0, 2024,  6, 20, 15, 33, 40,        0,        0,   0,   0,   1.3,   0.7,   1.1,  0,  0,  0,  0, 28, 20,  0,  0,  0,  0, 38, 39,  0,  0,  0,  0, 33,  0, 19, 23,  0, 26,  0, 24, 30,  0,  0,  0, 31,  0,  0,  0
6, 11202, 1,KF0LSY,     0.05, 3,   boost,  126.23,  86706.00, 1294.89,   -0.09,   90.41, 37.6, 7.46, 7.48, 3.57, 134.08,   1.76,  -3.46,  10.72,   0.32,  -0.66,   0.24,   0.24,   0.13,   6.49, 7.51, 0.00, 0.00, 0.00, 0.00, 1, 1, 11,  32.9394083,-106.9114995,  1397.0, 2024,  6, 20, 15, 33, 40,        0,        0,   0,   0,   1.3,   0.7,   1.1,  0,  0,  0,  0, 28, 20,  0,  0,  0,  0, 38, 39,  0,  0,  0,  0, 33,  0, 19, 23,  0, 26,  0, 24, 30,  0,  0,  0, 31,  0,  0,  0
6, 11202, 1,KF0LSY,     0.06, 3,   boost,  124.22,  86706.00, 1294.89,   -0.09,   92.94, 37.6, 7.46, 7.48, 3.57, 134.07,   1.31,  -1.88,   7.00,   1.11,  -1.64,   0.24,   0.24,   0.13,   6.49, 7.51, 0.00, 0.00, 0.00, 0.00, 1, 1, 11,  32.9394083,-106.9114995,  1397.0, 2024,  6, 20, 15, 33, 40,        0,        0,   0,   0,   1.3,   0.7,   1.1,  0,  0,  0,  0, 28, 20,  0,  0,  0,  0, 38, 39,  0,  0,  0,  0, 33,  0, 19, 23,  0, 26,  0, 24, 30,  0,  0,  0, 31,  0,  0,  0
6, 11202, 1,KF0LSY,     0.07, 3,   boost,  124.22,  86705.00, 1294.99,    0.00,   95.51, 37.6, 7.46, 7.48, 3.57, 133.41,   0.00,  -1.16,  13.04,   1.30,  -0.90,   0.23,   0.24,   0.13,   6.49, 7.51, 0.00, 0.00, 0.00, 0.00, 1, 1, 11,  32.9394083,-106.9114995,  1397.0, 2024,  6, 20, 15, 33, 40,        0,        0,   0,   0,   1.3,   0.7,   1.1,  0,  0,  0,  0, 28, 20,  0,  0,  0,  0, 38, 39,  0,  0,  0,  0, 33,  0, 19, 23,  0, 26,  0, 24, 30,  0,  0,  0, 31,  0,  0,  0
6, 11202, 1,KF0LSY,     0.08, 3,   boost,  122.71,  86705.00, 1294.99,    0.00,   98.14, 37.6, 7.46, 7.48, 3.57, 133.26,   2.23,  -3.90,   7.61,   3.49,   0.44,   0.23,   0.24,   0.13,   6.52, 7.51, 0.00, 0.00, 0.00, 0.00, 1, 1, 11,  32.9394083,-106.9114995,  1397.0, 2024,  6, 20, 15, 33, 40,        0,        0,   0,   0,   1.3,   0.7,   1.1,  0,  0,  0,  0, 28, 20,  0,  0,  0,  0, 38, 39,  0,  0,  0,  0, 33,  0, 19, 23,  0, 26,  0, 24, 30,  0,  0,  0, 31,  0,  0,  0
6, 11202, 1,KF0LSY,     0.09, 3,   boost,  122.21,  86698.00, 1295.65,    0.66,  100.83, 37.6, 7.46, 7.48, 3.57, 132.08,  -0.75,  -0.58,  11.02,   2.88,   0.87,   0.24,   0.24,   0.13,   6.54, 7.51, 0.00, 0.00, 0.00, 0.00, 1, 1, 11,  32.9394083,-106.9114995,  1397.0, 2024,  6, 20, 15, 33, 40,        0,        0,   0,   0,   1.3,   0.7,   1.1,  0,  0,  0,  0, 28, 20,  0,  0,  0,  0, 38, 39,  0,  0,  0,  0, 33,  0, 19, 23,  0, 26,  0, 24, 30,  0,  0,  0, 31,  0,  0,  0
6, 11202, 1,KF0LSY,     0.10, 3,   boost,  121.70,  86698.00, 1295.65,    0.66,  103.56, 37.6, 7.46, 7.48, 3.57, 130.87,   0.58,  -0.28,   0.16,   5.51,   2.64,   0.24,   0.24,   0.12,   6.60, 7.51, 0.00, 0.00, 0.00, 0.00, 1, 1, 11,  32.9394083,-106.9114995,  1397.0, 2024,  6, 20, 15, 33, 40,        0,        0,   0,   0,   1.3,   0.7,   1.1,  0,  0,  0,  0, 28, 20,  0,  0,  0,  0, 38, 39,  0,  0,  0,  0, 33,  0, 19, 23,  0, 26,  0, 24, 30,  0,  0,  0, 31,  0,  0,  0
6, 11202, 1,KF0LSY,     0.11, 3,   boost,  120.70,  86696.00, 1295.84,    0.85,  106.35, 37.6, 7.46, 7.48, 3.57, 128.55,   4.37,  -4.91,  -5.76,   4.41,   4.41,   0.23,   0.24,   0.13,   6.66, 7.51, 0.00, 0.00, 0.00, 0.00, 1, 1, 11,  32.9394083,-106.9114995,  1397.0, 2024,  6, 20, 15, 33, 40,        0,        0,   0,   0,   1.3,   0.7,   1.1,  0,  0,  0,  0, 28, 20,  0,  0,  0,  0, 38, 39,  0,  0,  0,  0, 33,  0, 19, 23,  0, 26,  0, 24, 30,  0,  0,  0, 31,  0,  0,  0
6, 11202, 1,KF0LSY,     0.12, 3,   boost,  116.17,  86696.00, 1295.84,    0.85,  109.20, 37.6, 7.46, 7.48, 3.57, 128.97,  -2.44,  -0.19, -37.19,  -3.83,  -4.75,   0.23,   0.24,   0.13,   6.60, 7.51, 0.00, 0.00, 0.00, 0.00, 1, 1, 11,  32.9394083,-106.9114995,  1397.0, 2024,  6, 20, 15, 33, 40,        0,        0,   0,   0,   1.3,   0.7,   1.1,  0,  0,  0,  0, 28, 20,  0,  0,  0,  0, 38, 39,  0,  0,  0,  0, 33,  0, 19, 23,  0, 26,  0, 24, 30,  0,  0,  0, 31,  0,  0,  0
6, 11202, 1,KF0LSY,     0.13, 3,   boost,  119.19,  86679.00, 1297.44,    2.46,  112.10, 37.6, 7.46, 7.48, 3.57, 127.61,   0.80,   1.39, -17.11,  -2.00,   0.19,   0.24,   0.24,   0.13,   6.59, 7.51, 0.00, 0.00, 0.00, 0.00, 1, 1, 11,  32.9394083,-106.9114995,  1397.0, 2024,  6, 20, 15, 33, 40,        0,        0,   0,   0,   1.3,   0.7,   1.1,  0,  0,  0,  0, 28, 20,  0,  0,  0,  0, 38, 39,  0,  0,  0,  0, 33,  0, 19, 23,  0, 26,  0, 24, 30,  0,  0,  0, 31,  0,  0,  0
6, 11202, 1,KF0LSY,     0.14, 3,   boost,  124.72,  86679.00, 1297.44,    2.46,  115.06, 37.6, 7.46, 7.48, 3.57, 129.11,  -4.71,   0.91, -27.73,  -5.66,  -2.98,   0.23,   0.24,   0.13,   6.53, 7.51, 0.00, 0.00, 0.00, 0.00, 1, 1, 11,  32.9394083,-106.9114995,  1397.0, 2024,  6, 20, 15, 33, 40,        0,        0,   0,   0,   1.3,   0.7,   1.1,  0,  0,  0,  0, 28, 20,  0,  0,  0,  0, 38, 39,  0,  0,  0,  0, 33,  0, 19, 23,  0, 26,  0, 24, 30,  0,  0,  0, 31,  0,  0,  0
6, 11202, 1,KF0LSY,     0.15, 3,   boost,  120.70,  86656.00, 1299.62,    4.63,  118.07, 37.6, 7.46, 7.48, 3.57, 128.43,   1.52,   0.50, -25.96,  -4.20,   3.06,   0.23,   0.24,   0.13,   6.52, 7.51, 0.00, 0.00, 0.00, 0.00, 1, 1, 11,  32.9394083,-106.9114995,  1397.0, 2024,  6, 20, 15, 33, 40,        0,        0,   0,   0,   1.3,   0.7,   1.1,  0,  0,  0,  0, 28, 20,  0,  0,  0,  0, 38, 39,  0,  0,  0,  0, 33,  0, 19, 23,  0, 26,  0, 24, 30,  0,  0,  0, 31,  0,  0,  0
6, 11202, 1,KF0LSY,     0.16, 3,   boost,  118.69,  86656.00, 1299.62,    4.63,  121.13, 37.6, 7.46, 7.48, 3.57, 128.40,   5.52,  -5.11, -14.49,  -8.29,   2.64,   0.23,   0.24,   0.13,   6.48, 7.51, 0.00, 0.00, 0.00, 0.00, 1, 1, 11,  32.9394083,-106.9114995,  1397.0, 2024,  6, 20, 15, 33, 40,        0,        0,   0,   0,   1.3,   0.7,   1.1,  0,  0,  0,  0, 28, 20,  0,  0,  0,  0, 38, 39,  0,  0,  0,  0, 33,  0, 19, 23,  0, 26,  0, 24, 30,  0,  0,  0, 31,  0,  0,  0
6, 11202, 1,KF0LSY,     0.17, 3,   boost,  120.70,  86714.00, 1294.14,   -0.85,  124.25, 37.6, 7.46, 7.48, 3.57, 128.46,   0.11,  -0.34,  -8.45,  -8.10,   5.20,   0.24,   0.24,   0.13,   6.47, 7.51, 0.00, 0.00, 0.00, 0.00, 1, 1, 11,  32.9394083,-106.9114995,  1397.0, 2024,  6, 20, 15, 33, 40,        0,        0,   0,   0,   1.3,   0.7,   1.1,  0,  0,  0,  0, 28, 20,  0,  0,  0,  0, 38, 39,  0,  0,  0,  0, 33,  0, 19, 23,  0, 26,  0, 24, 30,  0,  0,  0, 31,  0,  0,  0
6, 11202, 1,KF0LSY,     0.18, 3,   boost,  121.20,  86714.00, 1294.14,   -0.85,  127.42, 37.6, 7.46, 7.48, 3.57, 128.18,  -1.59,  -0.22,  11.02,  -7.80,   6.79,   0.24,   0.24,   0.13,   6.47, 7.51, 0.00, 0.00, 0.00, 0.00, 1, 1, 11,  32.9394083,-106.9114995,  1397.0, 2024,  6, 20, 15, 33, 40,        0,        0,   0,   0,   1.3,   0.7,   1.1,  0,  0,  0,  0, 28, 20,  0,  0,  0,  0, 38, 39,  0,  0,  0,  0, 33,  0, 19, 23,  0, 26,  0, 24, 30,  0,  0,  0, 31,  0,  0,  0
6, 11202, 1,KF0LSY,     0.19, 3,   boost,  118.69,  86640.00, 1301.13,    6.14,  130.64, 37.6, 7.46, 7.48, 3.57, 128.61,   2.80,  -2.72,  37.64,  -3.59,   5.93,   0.23,   0.24,   0.13,   6.49, 7.51, 0.00, 0.00, 0.00, 0.00, 1, 1, 11,  32.9394083,-106.9114995,  1397.0, 2024,  6, 20, 15, 33, 40,        0,        0,   0,   0,   1.3,   0.7,   1.1,  0,  0,  0,  0, 28, 20,  0,  0,  0,  0, 38, 39,  0,  0,  0,  0, 33,  0, 19, 23,  0, 26,  0, 24, 30,  0,  0,  0, 31,  0,  0,  0
6, 11202, 1,KF0LSY,     0.20, 3,   boost,  119.69,  86640.00, 1301.13,    6.14,  133.92, 37.6, 7.46, 7.48, 3.57, 128.84,  -5.25,  -5.22,  25.98,  -0.72,  -1.39,   0.23,   0.23,   0.13,   6.47, 7.51, 0.00, 0.00, 0.00, 0.00, 1, 1, 11,  32.9394083,-106.9114995,  1397.0, 2024,  6, 20, 15, 33, 40,        0,        0,   0,   0,   1.3,   0.7,   1.1,  0,  0,  0,  0, 28, 20,  0,  0,  0,  0, 38, 39,  0,  0,  0,  0, 33,  0, 19, 23,  0, 26,  0, 24, 30,  0,  0,  0, 31,  0,  0,  0
6, 11202, 1,KF0LSY,     0.21, 3,   boost,  119.69,  86696.00, 1295.84,    0.85,  137.25, 37.6, 7.46, 7.48, 3.57, 129.46,  -2.39,  -3.59,   9.50,  -0.35,   0.68,   0.24,   0.24,   0.13,   6.48, 7.51, 0.00, 0.00, 0.00, 0.00, 1, 1, 11,  32.9394083,-106.9114995,  1397.0, 2024,  6, 20, 15, 33, 40,        0,        0,   0,   0,   1.3,   0.7,   1.1,  0,  0,  0,  0, 28, 20,  0,  0,  0,  0, 38, 39,  0,  0,  0,  0, 33,  0, 19, 23,  0, 26,  0, 24, 30,  0,  0,  0, 31,  0,  0,  0
6, 11202, 1,KF0LSY,     0.22, 3,   boost,  119.69,  86696.00, 1295.84,    0.85,  140.63, 37.6, 7.46, 7.48, 3.57, 129.50,   4.21,   5.06,   7.61,   3.31,  -7.07,   0.23,   0.24,   0.13,   6.44, 7.51, 0.00, 0.00, 0.00, 0.00, 1, 1, 11,  32.9394083,-106.9114995,  1397.0, 2024,  6, 20, 15, 33, 40,        0,        0,   0,   0,   1.3,   0.7,   1.1,  0,  0,  0,  0, 28, 20,  0,  0,  0,  0, 38, 39,  0,  0,  0,  0, 33,  0, 19, 23,  0, 26,  0, 24, 30,  0,  0,  0, 31,  0,  0,  0
6, 11202, 1,KF0LSY,     0.23, 3,   boost,  121.20,  86640.00, 1301.13,    6.14,  144.07, 37.6, 7.46, 7.48, 3.57, 129.75,   5.60,  -8.33,  -6.31,   1.48,   0.19,   0.23,   0.24,   0.13,   6.45, 7.51, 0.00, 0.00, 0.00, 0.00, 1, 1, 11,  32.9394083,-106.9114995,  1397.0, 2024,  6, 20, 15, 33, 40,        0,        0,   0,   0,   1.3,   0.7,   1.1,  0,  0,  0,  0, 28, 20,  0,  0,  0,  0, 38, 39,  0,  0,  0,  0, 33,  0, 19, 23,  0, 26,  0, 24, 30,  0,  0,  0, 31,  0,  0,  0
6, 11202, 1,KF0LSY,     0.24, 3,   boost,  120.70,  86640.00, 1301.13,    6.14,  147.55, 37.6, 7.46, 7.48, 3.57, 128.79,   0.14,   1.15,  70.11,  -0.17,  -5.42,   0.24,   0.24,   0.13,   6.41, 7.51, 0.00, 0.00, 0.00, 0.00, 1, 1, 11,  32.9394083,-106.9114995,  1397.0, 2024,  6, 20, 15, 33, 40,        0,        0,   0,   0,   1.3,   0.7,   1.1,  0,  0,  0,  0, 28, 20,  0,  0,  0,  0, 38, 39,  0,  0,  0,  0, 33,  0, 19, 23,  0, 26,  0, 24, 30,  0,  0,  0, 31,  0,  0,  0
6, 11202, 1,KF0LSY,     0.25, 3,   boost,  121.20,  86647.00, 1300.47,    5.48,  151.09, 37.6, 7.46, 7.48, 3.57, 129.95,   0.41,  -0.42,  18.35,  -4.50,   5.99,   0.24,   0.24,   0.13,   6.43, 7.51, 0.00, 0.00, 0.00, 0.00, 1, 1, 11,  32.9394083,-106.9114995,  1397.0, 2024,  6, 20, 15, 33, 40,        0,        0,   0,   0,   1.3,   0.7,   1.1,  0,  0,  0,  0, 28, 20,  0,  0,  0,  0, 38, 39,  0,  0,  0,  0, 33,  0, 19, 23,  0, 26,  0, 24, 30,  0,  0,  0, 31,  0,  0,  0
6, 11202, 1,KF0LSY,     0.26, 3,   boost,  118.69,  86647.00, 1300.47,    5.48,  154.67, 37.6, 7.46, 7.48, 3.57, 129.18,  -0.37,  -1.91,  67.79,  -6.76,  -4.57,   0.23,   0.24,   0.13,   6.35, 7.51, 0.00, 0.00, 0.00, 0.00, 1, 1, 11,  32.9394083,-106.9114995,  1397.0, 2024,  6, 20, 15, 33, 40,        0,        0,   0,   0,   1.3,   0.7,   1.1,  0,  0,  0,  0, 28, 20,  0,  0,  0,  0, 38, 39,  0,  0,  0,  0, 33,  0, 19, 23,  0, 26,  0, 24, 30,  0,  0,  0, 31,  0,  0,  0
6, 11202, 1,KF0LSY,     0.27, 3,   boost,  120.70,  86654.00, 1299.81,    4.82,  158.30, 37.6, 7.46, 7.48, 3.57, 130.60,  -1.46,  -0.48,  53.08, -12.07,  -0.78,   0.23,   0.24,   0.13,   6.27, 7.51, 0.00, 0.00, 0.00, 0.00, 1, 1, 11,  32.9394083,-106.9114995,  1397.0, 2024,  6, 20, 15, 33, 40,        0,        0,   0,   0,   1.3,   0.7,   1.1,  0,  0,  0,  0, 28, 20,  0,  0,  0,  0, 38, 39,  0,  0,  0,  0, 33,  0, 19, 23,  0, 26,  0, 24, 30,  0,  0,  0, 31,  0,  0,  0
6, 11202, 1,KF0LSY,     0.28, 3,   boost,  122.21,  86654.00, 1299.81,    4.82,  161.99, 37.6, 7.46, 7.48, 3.57, 129.84,  -0.89,  -7.85,  45.45,  -8.29,  -7.86,   0.24,   0.24,   0.12,   6.16, 7.51, 0.00, 0.00, 0.00, 0.00, 1, 1, 11,  32.9394083,-106.9114995,  1397.0, 2024,  6, 20, 15, 33, 40,        0,        0,   0,   0,   1.3,   0.7,   1.1,  0,  0,  0,  0, 28, 20,  0,  0,  0,  0, 38, 39,  0,  0,  0,  0, 33,  0, 19, 23,  0, 26,  0, 24, 30,  0,  0,  0, 31,  0,  0,  0
6, 11202, 1,KF0LSY,     0.29, 3,   boost,  122.21,  86651.00, 1300.09,    5.10,  165.71, 37.6, 7.46, 7.48, 3.57, 130.81,   1.62,  -2.50,  60.34,  -9.69,  -6.76,   0.24,   0.24,   0.12,   6.05, 7.51, 0.00, 0.00, 0.00, 0.00, 1, 1, 11,  32.9394083,-106.9114995,  1397.0, 2024,  6, 20, 15, 33, 40,        0,        0,   0,   0,   1.3,   0.7,   1.1,  0,  0,  0,  0, 28, 20,  0,  0,  0,  0, 38, 39,  0,  0,  0,  0, 33,  0, 19, 23,  0, 26,  0, 24, 30,  0,  0,  0, 31,  0,  0,  0
6, 11202, 1,KF0LSY,     0.30, 3,   boost,  122.71,  86651.00, 1300.09,    5.10,  169.49, 37.6, 7.46, 7.48, 3.57, 130.40,   3.64,  -2.54,  43.37,  -5.54,  -8.72,   0.23,   0.24,   0.12,   5.94, 7.51, 0.00, 0.00, 0.00, 0.00, 1, 1, 11,  32.9394083,-106.9114995,  1397.0, 2024,  6, 20, 15, 33, 40,        0,        0,   0,   0,   1.3,   0.7,   1.1,  0,  0,  0,  0, 28, 20,  0,  0,  0,  0, 38, 39,  0,  0,  0,  0, 33,  0, 19, 23,  0, 26,  0, 24, 30,  0,  0,  0, 31,  0,  0,  0
6, 11202, 1,KF0LSY,     0.31, 3,   boost,  120.19,  86662.00, 1299.05,    4.06,  173.31, 37.6, 7.46, 7.48, 3.57, 131.71,   1.90,   0.67,  52.83,  -9.93,  -6.52,   0.23,   0.24,   0.12,   5.83, 7.51, 0.00, 0.00, 0.00, 0.00, 1, 1, 11,  32.9394083,-106.9114995,  1397.0, 2024,  6, 20, 15, 33, 40,        0,        0,   0,   0,   1.3,   0.7,   1.1,  0,  0,  0,  0, 28, 20,  0,  0,  0,  0, 38, 39,  0,  0,  0,  0, 33,  0, 19, 23,  0, 26,  0, 24, 30,  0,  0,  0, 31,  0,  0,  0
6, 11202, 1,KF0LSY,     0.32, 3,   boost,  123.21,  86662.00, 1299.05,    4.06,  177.17, 37.6, 7.46, 7.48, 3.57, 131.67,   1.29,   0.77,  45.69,  -9.45,  -7.86,   0.24,   0.24,   0.12,   5.71, 7.51, 0.00, 0.00, 0.00, 0.00, 1, 1, 11,  32.9394083,-106.9114995,  1397.0, 2024,  6, 20, 15, 33, 40,        0,        0,   0,   0,   1.3,   0.7,   1.1,  0,  0,  0,  0, 28, 20,  0,  0,  0,  0, 38, 39,  0,  0,  0,  0, 33,  0, 19, 23,  0, 26,  0, 24, 30,  0,  0,  0, 31,  0,  0,  0
6, 11202, 1,KF0LSY,     0.33, 3,   boost,  125.22,  86653.00, 1299.90,    4.91,  181.08, 37.6, 7.46, 7.48, 3.57, 132.01,  -0.68,  -1.20,  47.83, -14.27,  -8.78,   0.23,   0.25,   0.12,   5.56, 7.51, 0.00, 0.00, 0.00, 0.00, 1, 1, 11,  32.9394083,-106.9114995,  1397.0, 2024,  6, 20, 15, 33, 40,        0,        0,   0,   0,   1.3,   0.7,   1.1,  0,  0,  0,  0, 28, 20,  0,  0,  0,  0, 38, 39,  0,  0,  0,  0, 33,  0, 19, 23,  0, 26,  0, 24, 30,  0,  0,  0, 31,  0,  0,  0
6, 11202, 1,KF0LSY,     0.34, 3,   boost,  125.73,  86653.00, 1299.90,    4.91,  185.03, 37.6, 7.49, 7.51, 3.57, 133.34,   0.15,  -3.10,  46.42, -12.56, -11.59,   0.23,   0.25,   0.12,   5.40, 7.50, 0.00, 0.00, 0.00, 0.13, 1, 1, 11,  32.9394083,-106.9114995,  1397.0, 2024,  6, 20, 15, 33, 40,        0,        0,   0,   0,   1.3,   0.7,   1.1,  0,  0,  0,  0, 28, 20,  0,  0,  0,  0, 38, 39,  0,  0,  0,  0, 33,  0, 19, 23,  0, 26,  0, 24, 30,  0,  0,  0, 31,  0,  0,  0
6, 11202, 1,KF0LSY,     0.34, 3,   boost,  125.73,  86653.00, 1299.90,    4.91,  185.03, 37.6, 7.49, 7.51, 3.57, 133.34,   0.15,  -3.10,  46.42, -12.56, -11.59,   0.23,   0.25,   0.12,   5.40, 7.50, 0.00, 0.00, 0.00, 0.13, 1, 1, 11,  32.9394083,-106.9114995,  1397.0, 2024,  6, 20, 15, 33, 40,        0,        0,   0,   0,   1.3,   0.7,   1.1,  0,  0,  0,  0, 28, 20,  0,  0,  0,  0, 38, 39,  0,  0,  0,  0, 33,  0, 19, 23,  0, 26,  0, 24, 30,  0,  0,  0, 31,  0,  0,  0
6, 11202, 1,KF0LSY,     0.35, 3,   boost,  125.22,  86638.00, 1301.32,    6.33,  189.01, 37.6, 7.49, 7.51, 3.57, 134.09,   0.60,  -4.47,  46.06, -13.23, -13.29,   0.23,   0.25,   0.12,   5.22, 7.50, 0.00, 0.00, 0.00, 0.13, 1, 1, 11,  32.9394083,-106.9114995,  1397.0, 2024,  6, 20, 15, 33, 40,        0,        0,   0,   0,   1.3,   0.7,   1.1,  0,  0,  0,  0, 28, 20,  0,  0,  0,  0, 38, 39,  0,  0,  0,  0, 33,  0, 19, 23,  0, 26,  0, 24, 30,  0,  0,  0, 31,  0,  0,  0
6, 11202, 1,KF0LSY,     0.36, 3,   boost,  125.22,  86638.00, 1301.32,    6.33,  193.04, 37.6, 7.49, 7.51, 3.57, 134.32,   2.07,  -2.96,  44.59, -10.60, -14.70,   0.23,   0.25,   0.12,   5.04, 7.50, 0.00, 0.00, 0.00, 0.13, 1, 1, 11,  32.9394083,-106.9114995,  1397.0, 2024,  6, 20, 15, 33, 40,        0,        0,   0,   0,   1.3,   0.7,   1.1,  0,  0,  0,  0, 28, 20,  0,  0,  0,  0, 38, 39,  0,  0,  0,  0, 33,  0, 19, 23,  0, 26,  0, 24, 30,  0,  0,  0, 31,  0,  0,  0
6, 11202, 1,KF0LSY,     0.37, 3,   boost,  128.74,  86643.00, 1300.85,    5.86,  197.10, 37.6, 7.49, 7.51, 3.57, 135.19,   2.48,  -0.98,  44.72, -12.19, -14.33,   0.23,   0.25,   0.12,   4.85, 7.50, 0.00, 0.00, 0.00, 0.13, 1, 1, 11,  32.9394083,-106.9114995,  1397.0, 2024,  6, 20, 15, 33, 40,        0,        0,   0,   0,   1.3,   0.7,   1.1,  0,  0,  0,  0, 28, 20,  0,  0,  0,  0, 38, 39,  0,  0,  0,  0, 33,  0, 19, 23,  0, 26,  0, 24, 30,  0,  0,  0, 31,  0,  0,  0
6, 11202, 1,KF0LSY,     0.38, 3,   boost,  128.24,  86643.00, 1300.85,    5.86,  201.20, 37.6, 7.49, 7.51, 3.57, 135.91,   2.22,   0.32,  44.84, -13.11, -14.45,   0.22,   0.25,   0.12,   4.66, 7.50, 0.00, 0.00, 0.00, 0.13, 1, 1, 11,  32.9394083,-106.9114995,  1397.0, 2024,  6, 20, 15, 33, 40,        0,        0,   0,   0,   1.3,   0.7,   1.1,  0,  0,  0,  0, 28, 20,  0,  0,  0,  0, 38, 39,  0,  0,  0,  0, 33,  0, 19, 23,  0, 26,  0, 24, 30,  0,  0,  0, 31,  0,  0,  0
6, 11202, 1,KF0LSY,     0.39, 3,   boost,  130.76,  86627.00, 1302.36,    7.37,  205.33, 37.6, 7.49, 7.51, 3.57, 136.95,   0.99,  -0.35,  45.94, -16.16, -14.88,   0.23,   0.25,   0.12,   4.46, 7.50, 0.00, 0.00, 0.00, 0.13, 1, 1, 11,  32.9394083,-106.9114995,  1397.0, 2024,  6, 20, 15, 33, 40,        0,        0,   0,   0,   1.3,   0.7,   1.1,  0,  0,  0,  0, 28, 20,  0,  0,  0,  0, 38, 39,  0,  0,  0,  0, 33,  0, 19, 23,  0, 26,  0, 24, 30,  0,  0,  0, 31,  0,  0,  0
6, 11202, 1,KF0LSY,     0.40, 3,   boost,  131.26,  86627.00, 1302.36,    7.37,  209.50, 37.6, 7.49, 7.51, 3.57, 137.85,   0.49,  -2.12,  47.04, -16.59, -16.59,   0.23,   0.26,   0.11,   4.23, 7.50, 0.00, 0.00, 0.00, 0.13, 1, 1, 11,  32.9394083,-106.9114995,  1397.0, 2024,  6, 20, 15, 33, 40,        0,        0,   0,   0,   1.3,   0.7,   1.1,  0,  0,  0,  0, 28, 20,  0,  0,  0,  0, 38, 39,  0,  0,  0,  0, 33,  0, 19, 23,  0, 26,  0, 24, 30,  0,  0,  0, 31,  0,  0,  0
6, 11202, 1,KF0LSY,     0.41, 3,   boost,  131.26,  86617.00, 1303.30,    8.31,  213.70, 37.6, 7.49, 7.51, 3.57, 139.42,   0.65,  -3.73,  47.34, -17.38, -18.24,   0.23,   0.26,   0.11,   4.00, 7.50, 0.00, 0.00, 0.00, 0.13, 1, 1, 11,  32.9394083,-106.9114995,  1397.0, 2024,  6, 20, 15, 33, 40,        0,        0,   0,   0,   1.3,   0.7,   1.1,  0,  0,  0,  0, 28, 20,  0,  0,  0,  0, 38, 39,  0,  0,  0,  0, 33,  0, 19, 23,  0, 26,  0, 24, 30,  0,  0,  0, 31,  0,  0,  0
6, 11202, 1,KF0LSY,     0.42, 3,   boost,  131.76,  86617.00, 1303.30,    8.31,  217.92, 37.6, 7.49, 7.51, 3.57, 139.75,   1.67,  -3.62,  46.30, -16.34, -19.58,   0.22,   0.26,   0.11,   3.75, 7.50, 0.00, 0.00, 0.00, 0.13, 1, 1, 11,  32.9394083,-106.9114995,  1397.0, 2024,  6, 20, 15, 33, 40,        0,        0,   0,   0,   1.3,   0.7,   1.1,  0,  0,  0,  0, 28, 20,  0,  0,  0,  0, 38, 39,  0,  0,  0,  0, 33,  0, 19, 23,  0, 26,  0, 24, 30,  0,  0,  0, 31,  0,  0,  0
6, 11202, 1,KF0LSY,     0.43, 3,   boost,  132.26,  86611.00, 1303.87,    8.88,  222.17, 37.6, 7.49, 7.51, 3.57, 141.49,   2.83,  -1.14,  45.33, -16.46, -19.89,   0.23,   0.26,   0.11,   3.51, 7.50, 0.00, 0.00, 0.00, 0.13, 1, 1, 11,  32.9394083,-106.9114995,  1397.0, 2024,  6, 20, 15, 33, 40,        0,        0,   0,   0,   1.3,   0.7,   1.1,  0,  0,  0,  0, 28, 20,  0,  0,  0,  0, 38, 39,  0,  0,  0,  0, 33,  0, 19, 23,  0, 26,  0, 24, 30,  0,  0,  0, 31,  0,  0,  0
6, 11202, 1,KF0LSY,     0.44, 3,   boost,  132.77,  86611.00, 1303.87,    8.88,  226.45, 37.6, 7.49, 7.51, 3.57, 141.94,   2.44,  -0.14,  44.90, -17.87, -19.89,   0.23,   0.26,   0.11,   3.26, 7.50, 0.00, 0.00, 0.00, 0.13, 1, 1, 11,  32.9394083,-106.9114995,  1397.0, 2024,  6, 20, 15, 33, 40,        0,        0,   0,   0,   1.3,   0.7,   1.1,  0,  0,  0,  0, 28, 20,  0,  0,  0,  0, 38, 39,  0,  0,  0,  0, 33,  0, 19, 23,  0, 26,  0, 24, 30,  0,  0,  0, 31,  0,  0,  0
6, 11202, 1,KF0LSY,     0.45, 3,   boost,  133.27,  86619.00, 1303.11,    8.12,  230.75, 37.6, 7.49, 7.51, 3.57, 142.42,   1.37,  -1.07,  44.96, -20.00, -20.19,   0.23,   0.26,   0.11,   3.01, 7.50, 0.00, 0.00, 0.00, 0.13, 1, 1, 11,  32.9394083,-106.9114995,  1397.0, 2024,  6, 20, 15, 33, 40,        0,        0,   0,   0,   1.3,   0.7,   1.1,  0,  0,  0,  0, 28, 20,  0,  0,  0,  0, 38, 39,  0,  0,  0,  0, 33,  0, 19, 23,  0, 26,  0, 24, 30,  0,  0,  0, 31,  0,  0,  0
6, 11202, 1,KF0LSY,     0.46, 3,   boost,  134.78,  86619.00, 1303.11,    8.12,  235.07, 37.6, 7.49, 7.51, 3.57, 143.37,   0.83,  -2.67,  46.30, -21.35, -21.41,   0.22,   0.26,   0.11,   2.76, 7.50, 0.00, 0.00, 0.00, 0.13, 1, 1, 11,  32.9394083,-106.9114995,  1397.0, 2024,  6, 20, 15, 33, 40,        0,        0,   0,   0,   1.3,   0.7,   1.1,  0,  0,  0,  0, 28, 20,  0,  0,  0,  0, 38, 39,  0,  0,  0,  0, 33,  0, 19, 23,  0, 26,  0, 24, 30,  0,  0,  0, 31,  0,  0,  0
6, 11202, 1,KF0LSY,     0.47, 3,   boost,  136.29,  86605.00, 1304.44,    9.45,  239.41, 37.6, 7.49, 7.51, 3.57, 144.91,   1.14,  -3.52,  46.36, -21.47, -23.24,   0.22,   0.27,   0.11,   2.49, 7.50, 0.00, 0.00, 0.00, 0.13, 1, 1, 11,  32.9394083,-106.9114995,  1397.0, 2024,  6, 20, 15, 33, 40,        0,        0,   0,   0,   1.3,   0.7,   1.1,  0,  0,  0,  0, 28, 20,  0,  0,  0,  0, 38, 39,  0,  0,  0,  0, 33,  0, 19, 23,  0, 26,  0, 24, 30,  0,  0,  0, 31,  0,  0,  0
6, 11202, 1,KF0LSY,     0.48, 3,   boost,  137.80,  86605.00, 1304.44,    9.45,  243.77, 37.6, 7.49, 7.51, 3.57, 146.34,   2.26,  -3.40,  45.69, -21.16, -24.34,   0.22,   0.27,   0.11,   2.23, 7.50, 0.00, 0.00, 0.00, 0.13, 1, 1, 11,  32.9394083,-106.9114995,  1397.0, 2024,  6, 20, 15, 33, 40,        0,        0,   0,   0,   1.3,   0.7,   1.1,  0,  0,  0,  0, 28, 20,  0,  0,  0,  0, 38, 39,  0,  0,  0,  0, 33,  0, 19, 23,  0, 26,  0, 24, 30,  0,  0,  0, 31,  0,  0,  0
6, 11202, 1,KF0LSY,     0.49, 3,   boost,  135.28,  86598.00, 1305.10,   10.11,  248.14, 37.6, 7.49, 7.51, 3.57, 146.32,   3.02,  -2.15,  45.02, -21.10, -24.71,   0.22,   0.27,   0.11,   1.99, 7.50, 0.00, 0.00, 0.00, 0.13, 1, 1, 11,  32.9394083,-106.9114995,  1397.0, 2024,  6, 20, 15, 33, 40,        0,        0,   0,   0,   1.3,   0.7,   1.1,  0,  0,  0,  0, 28, 20,  0,  0,  0,  0, 38, 39,  0,  0,  0,  0, 33,  0, 19, 23,  0, 26,  0, 24, 30,  0,  0,  0, 31,  0,  0,  0
6, 11202, 1,KF0LSY,     0.50, 3,   boost,  137.29,  86598.00, 1305.10,   10.11,  252.52, 37.6, 7.49, 7.51, 3.57, 146.45,   2.80,  -1.50,  44.53, -21.35, -24.34,   0.22,   0.27,   0.11,   1.78, 7.50, 0.00, 0.00, 0.00, 0.13, 1, 1, 11,  32.9394083,-106.9114995,  1397.0, 2024,  6, 20, 15, 33, 40,        0,        0,   0,   0,   1.3,   0.7,   1.1,  0,  0,  0,  0, 28, 20,  0,  0,  0,  0, 38, 39,  0,  0,  0,  0, 33,  0, 19, 23,  0, 26,  0, 24, 30,  0,  0,  0, 31,  0,  0,  0
6, 11202, 1,KF0LSY,     0.51, 3,   boost,  139.30,  86582.00, 1306.61,   11.62,  256.92, 37.6, 7.49, 7.51, 3.57, 146.53,   2.07,  -1.47,  44.65, -23.06, -24.71,   0.22,   0.27,   0.11,   1.62, 7.50, 0.00, 0.00, 0.00, 0.13, 1, 1, 11,  32.9394083,-106.9114995,  1397.0, 2024,  6, 20, 15, 33, 40,        0,        0,   0,   0,   1.3,   0.7,   1.1,  0,  0,  0,  0, 28, 20,  0,  0,  0,  0, 38, 39,  0,  0,  0,  0, 33,  0, 19, 23,  0, 26,  0, 24, 30,  0,  0,  0, 31,  0,  0,  0
6, 11202, 1,KF0LSY,     0.52, 3,   boost,  139.81,  86582.00, 1306.61,   11.62,  261.32, 37.6, 7.49, 7.51, 3.57, 147.45,   1.49,  -2.19,  44.90, -23.91, -25.56,   0.21,   0.28,   0.11,   1.51, 7.50, 0.00, 0.00, 0.00, 0.13, 1, 1, 11,  32.9394083,-106.9114995,  1397.0, 2024,  6, 20, 15, 33, 40,        0,        0,   0,   0,   1.3,   0.7,   1.1,  0,  0,  0,  0, 28, 20,  0,  0,  0,  0, 38, 39,  0,  0,  0,  0, 33,  0, 19, 23,  0, 26,  0, 24, 30,  0,  0,  0, 31,  0,  0,  0
6, 11202, 1,KF0LSY,     0.53, 3,   boost,  139.30,  86574.00, 1307.37,   12.38,  265.72, 37.6, 7.49, 7.51, 3.57, 148.00,   1.39,  -3.08,  45.63, -25.07, -26.60,   0.21,   0.28,   0.12,   1.48, 7.50, 0.00, 0.00, 0.00, 0.13, 1, 1, 11,  32.9394083,-106.9114995,  1397.0, 2024,  6, 20, 15, 33, 40,        0,        0,   0,   0,   1.3,   0.7,   1.1,  0,  0,  0,  0, 28, 20,  0,  0,  0,  0, 38, 39,  0,  0,  0,  0, 33,  0, 19, 23,  0, 26,  0, 24, 30,  0,  0,  0, 31,  0,  0,  0
6, 11202, 1,KF0LSY,     0.54, 3,   boost,  138.80,  86574.00, 1307.37,   12.38,  270.13, 37.6, 7.49, 7.51, 3.57, 147.66,   2.18,  -3.48,  45.27, -24.77, -27.64,   0.22,   0.28,   0.11,   1.54, 7.50, 0.00, 0.00, 0.00, 0.13, 1, 1, 11,  32.9394083,-106.9114995,  1397.0, 2024,  6, 20, 15, 33, 40,        0,        0,   0,   0,   1.3,   0.7,   1.1,  0,  0,  0,  0, 28, 20,  0,  0,  0,  0, 38, 39,  0,  0,  0,  0, 33,  0, 19, 23,  0, 26,  0, 24, 30,  0,  0,  0, 31,  0,  0,  0
6, 11202, 1,KF0LSY,     0.55, 3,   boost,  140.81,  86555.00, 1309.16,   14.18,  274.54, 37.6, 7.49, 7.51, 3.57, 147.98,   2.91,  -3.10,  45.02, -25.25, -28.55,   0.22,   0.28,   0.11,   1.69, 7.50, 0.00, 0.00, 0.00, 0.13, 1, 1, 11,  32.9394083,-106.9114995,  1397.0, 2024,  6, 20, 15, 33, 40,        0,        0,   0,   0,   1.3,   0.7,   1.1,  0,  0,  0,  0, 28, 20,  0,  0,  0,  0, 38, 39,  0,  0,  0,  0, 33,  0, 19, 23,  0, 26,  0, 24, 30,  0,  0,  0, 31,  0,  0,  0
6, 11202, 1,KF0LSY,     0.56, 3,   boost,  140.31,  86555.00, 1309.16,   14.18,  278.95, 37.6, 7.49, 7.51, 3.57, 148.40,   3.29,  -2.21,  44.35, -25.01, -29.10,   0.22,   0.28,   0.11,   1.90, 7.50, 0.00, 0.00, 0.00, 0.13, 1, 1, 11,  32.9394083,-106.9114995,  1397.0, 2024,  6, 20, 15, 33, 40,        0,        0,   0,   0,   1.3,   0.7,   1.1,  0,  0,  0,  0, 28, 20,  0,  0,  0,  0, 38, 39,  0,  0,  0,  0, 33,  0, 19, 23,  0, 26,  0, 24, 30,  0,  0,  0, 31,  0,  0,  0
6, 11202, 1,KF0LSY,     0.57, 3,   boost,  137.80,  86547.00, 1309.92,   14.93,  283.36, 37.6, 7.49, 7.51, 3.57, 148.34,   2.78,  -1.94,  43.19, -26.29, -28.92,   0.20,   0.28,   0.12,   2.18, 7.50, 0.00, 0.00, 0.00, 0.13, 1, 1, 11,  32.9394083,-106.9114995,  1397.0, 2024,  6, 20, 15, 33, 40,        0,        0,   0,   0,   1.3,   0.7,   1.1,  0,  0,  0,  0, 28, 20,  0,  0,  0,  0, 38, 39,  0,  0,  0,  0, 33,  0, 19, 23,  0, 26,  0, 24, 30,  0,  0,  0, 31,  0,  0,  0
